[
    {
        "name": "Artisten",
        "img": "https://goteborgspianofestival.com/wp-content/themes/goteborgspianofestival/img/slider/artisten.jpg",
        "show": false,
        "lat": "57.696232",
        "lng": "11.982852",
        "years": [
            {
                "year": "2016"
            }
        ]
    },
    {
        "name": "GöteborgsOperan",
        "img": "https://goteborgspianofestival.com/wp-content/themes/goteborgspianofestival/img/slider/GoteborgsOperan.png",
        "show": true,
        "lat": "57.711111",
        "lng": "11.964167",
        "years": [
            {
                "year": "2016"
            },
            {
                "year": "2017"
            },
            {
                "year": "2018"
            }
        ]
    },
    {
        "name": "Göteborgs konserthus",
        "img": "https://goteborgspianofestival.com/wp-content/themes/goteborgspianofestival/img/slider/gbg_konserthus.jpg",
        "show": true,
        "lat": "57.697052",
        "lng": "11.979301",
        "years": [
            {
                "year": "2017"
            },
            {
                "year": "2018"
            }
        ]
    },
    {
        "name": "Världskulturmuseet",
        "img": "https://goteborgspianofestival.com/wp-content/themes/goteborgspianofestival/img/slider/varldskulturmuseet.png",
        "show": false,
        "lat": "57.694603",
        "lng": "11.989485",
        "years": [
            {
                "year": "2016"
            },
            {
                "year": "2017"
            }
        ]
    },
    {
        "name": "Stora teatern",
        "img": null,
        "show": false,
        "lat": "57.702245",
        "lng": "11.971032",
        "years": [
            {
                "year": "2016"
            }
        ]
    },
    {
        "name": "Dicksonska palatset",
        "img": "https://goteborgspianofestival.com/wp-content/themes/goteborgspianofestival/img/slider/Dicksonska.jpg",
        "show": true,
        "lat": "57.702844",
        "lng": "11.974131",
        "years": [
            {
                "year": "2018"
            }
        ]
    }
]
